var data={"count":10785236,"photos":[{"city":"Edinburgh","total":"28","latitude":"55.95416","longitude":"-3.20277"},{"city":"London","total":"57","latitude":"51.50643","longitude":"-0.12721"},{"city":"Mainz","total":"1","latitude":"50.00061","longitude":"8.27228"},{"city":"Hartlepool","total":"1","latitude":"54.68538","longitude":"-1.21322"},{"city":"Charlotte","total":"2","latitude":"35.22287","longitude":"-80.83796"},{"city":"Venice","total":"2","latitude":"27.09945","longitude":"-82.45001"},{"city":"Ottawa","total":"2","latitude":"45.42179","longitude":"-75.69119"},{"city":"Napoli","total":"1","latitude":"40.83999","longitude":"14.25176"},{"city":"Melbourne","total":"10","latitude":"-37.81753","longitude":"144.96715"},{"city":"Rochester","total":"4","latitude":"43.1558","longitude":"-77.61632"},{"city":"Swadlincote","total":"1","latitude":"52.77412","longitude":"-1.55219"},{"city":"Watford","total":"1","latitude":"51.65213","longitude":"-0.3907"},{"city":"Singapore","total":"5","latitude":"1.29017","longitude":"103.852"},{"city":"Norfolk","total":"1","latitude":"36.84682","longitude":"-76.28506"},{"city":"Oakland","total":"1","latitude":"37.80508","longitude":"-122.27307"},{"city":"Pittsburgh","total":"6","latitude":"40.43834","longitude":"-79.99748"},{"city":"Praha","total":"4","latitude":"50.07908","longitude":"14.43323"},{"city":"Berlin","total":"11","latitude":"52.51607","longitude":"13.37699"}]};